,City Name,Lat,Lng,Max Temp,Humidity,Cloudiness,Wind Speed,Country,Date
0,shrewsbury,52.7101,-2.7521,280.15,87,75,3.6,GB,1619568831
1,sangar,63.9242,127.4739,265.12,83,47,3.82,RU,1619568832
2,vaini,-21.2,-175.2,297.15,83,75,7.72,TO,1619568832
3,bredasdorp,-34.5322,20.0403,283.15,93,99,0.51,ZA,1619568721
4,el faiyum,,,,,,,,
5,chifeng,42.2683,118.9636,283.33,20,0,9.71,CN,1619568553
6,guilin,25.2819,110.2864,291.15,94,90,1,CN,1619568833
7,jamestown,42.097,-79.2353,295.15,43,20,4.12,US,1619568834
8,new norfolk,-42.7826,147.0587,289.82,72,91,2.24,AU,1619568835
9,babanusah,,,,,,,,
10,champerico,14.3,-91.9167,299.15,89,75,2.06,GT,1619568836
11,yialos,,,,,,,,
12,blythe,33.6103,-114.5964,296.48,18,20,5.48,US,1619568837
13,odweyne,9.4092,45.064,296.85,64,26,2.86,SO,1619568837
14,hermanus,-34.4187,19.2345,286.48,85,97,2.2,ZA,1619568721
15,punta arenas,-53.15,-70.9167,279.15,87,90,4.63,CL,1619568838
16,izhma,65.0083,53.9113,273.74,96,100,1.79,RU,1619568838
17,kodiak,57.79,-152.4072,280.15,81,90,10.29,US,1619568788
18,navahrudak,53.6,25.8333,274.75,93,99,3.06,BY,1619568838
19,illoqqortoormiut,,,,,,,,
20,kapaa,22.0752,-159.319,298.71,83,75,3.6,US,1619568839
21,kamenka,51.3223,42.7678,277.59,79,88,3.02,RU,1619568777
22,qaanaaq,77.484,-69.3632,275.77,95,100,0.88,GL,1619568840
23,ushuaia,-54.8,-68.3,279.15,93,75,2.57,AR,1619568689
24,mataura,-46.1927,168.8643,281.06,71,99,1.03,NZ,1619568698
25,bluff,-46.6,168.3333,284.12,82,100,7.46,NZ,1619568841
26,sentyabrskiy,,,,,,,,
27,saldanha,-33.0117,17.9442,287.15,88,98,1.03,ZA,1619568841
28,ust-ilimsk,58.0006,102.6619,271.95,67,16,1.34,RU,1619568726
29,fortuna,40.5982,-124.1573,289.26,67,20,5.14,US,1619568842
30,raudeberg,61.9875,5.1352,277.04,79,12,8.19,NO,1619568842
31,kamenskoye,,,,,,,,
32,taolanaro,,,,,,,,
33,coihaique,-45.5752,-72.0662,280.15,93,75,1.54,CL,1619568843
34,caravelas,-17.7125,-39.2481,297.14,77,56,2.99,BR,1619568843
35,avarua,-21.2078,-159.775,301.15,74,20,4.12,CK,1619568784
36,yakeshi,49.2833,120.7333,272.68,91,100,7.79,CN,1619568844
37,te anau,-45.4167,167.7167,280.41,75,97,0.29,NZ,1619568714
38,piploda,23.35,75.4333,300.16,31,51,4.05,IN,1619568845
39,hilo,19.7297,-155.09,302.15,51,1,3.09,US,1619568186
40,chagda,,,,,,,,
41,tuktoyaktuk,69.4541,-133.0374,266.15,58,20,4.63,CA,1619568716
42,chalmette,29.9427,-89.9634,300.15,78,90,4.12,US,1619568845
43,busselton,-33.65,115.3333,290.81,85,29,1.63,AU,1619568846
44,hirara,24.8,125.2833,297.15,73,75,5.14,JP,1619568847
45,caohai,26.8661,104.2841,282.62,84,100,3.66,CN,1619568847
46,luderitz,-26.6481,15.1594,288.28,83,16,3.62,NA,1619568788
47,khatanga,71.9667,102.5,269.03,82,100,3.23,RU,1619568849
48,calbuco,-41.768,-73.1273,287.15,94,90,7.2,CL,1619568849
49,rikitea,-23.1203,-134.9692,298.25,73,41,4.91,PF,1619568700
50,marcona,,,,,,,,
51,tambo,-14.8,-73.9167,274.43,87,84,0.55,PE,1619568870
52,cotonou,6.3654,2.4183,302.15,84,40,4.63,BJ,1619568870
53,kemijarvi,66.7131,27.4306,265.55,96,70,1.89,FI,1619568871
54,east london,-33.0153,27.9116,291.36,72,81,4.92,ZA,1619568717
55,pisco,-13.7,-76.2167,292.15,88,0,4.12,PE,1619568871
56,saint george,37.1041,-113.5841,291.48,36,75,1.54,US,1619568768
57,grand river south east,,,,,,,,
58,vila franca do campo,37.7167,-25.4333,288.15,82,75,5.14,PT,1619568785
59,shimoda,34.6667,138.95,291.15,72,75,6.69,JP,1619568791
60,talnakh,69.4865,88.3972,270.78,80,99,5.17,RU,1619568823
61,satuk,41.2263,32.3836,283.6,69,60,1.8,TR,1619568873
62,georgetown,5.4112,100.3354,299.82,89,40,1.54,MY,1619568845
63,baykit,61.67,96.37,273.29,80,29,1.65,RU,1619568873
64,aguimes,27.9054,-15.4461,293.15,64,75,1.03,ES,1619568874
65,sola,-13.8833,167.55,299.95,67,59,4.34,VU,1619568874
66,lompoc,34.6391,-120.4579,288.71,63,0,7.2,US,1619568627
67,nueva guinea,11.6876,-84.4562,297.96,64,100,4.47,NI,1619568875
68,mar del plata,-38.0023,-57.5575,290.37,87,0,1.54,AR,1619568875
69,castro,-24.7911,-50.0119,286.3,75,0,1.02,BR,1619568876
70,kutum,14.2,24.6667,295.63,15,11,2.5,SD,1619568876
71,tasiilaq,65.6145,-37.6368,275.15,75,20,5.14,GL,1619568719
72,sirari,-1.2333,34.4333,289.13,90,65,1.87,TZ,1619568877
73,klaksvik,62.2266,-6.589,277.15,87,75,3.6,FO,1619568800
74,dikson,73.5069,80.5464,273.11,97,100,8.06,RU,1619568877
75,saint-philippe,-21.3585,55.7679,298.15,78,90,3.09,RE,1619568878
76,pulaski,34.7668,-92.3001,297.59,73,90,3.6,US,1619568878
77,barentsburg,,,,,,,,
78,college,64.8569,-147.8028,282.04,19,75,3.09,US,1619568636
79,la ronge,55.1001,-105.2842,270.15,31,75,6.17,CA,1619568879
80,shunyi,40.125,116.6453,290.15,19,0,6,CN,1619568880
81,lebu,-37.6167,-73.65,286.38,96,70,0.89,CL,1619568716
82,cairns,-16.9167,145.7667,300.93,65,40,5.66,AU,1619568880
83,akhtubinsk,48.2795,46.1722,280.9,62,72,2.25,RU,1619568881
84,codrington,-38.2667,141.9667,286.69,70,60,1.64,AU,1619568881
85,zhuhai,22.2769,113.5678,298.15,88,40,4.63,CN,1619568882
86,kidal,18.4411,1.4078,307.03,15,82,2.55,ML,1619568882
87,hobart,-42.8794,147.3294,289.82,76,75,3.09,AU,1619568882
88,nouadhibou,20.931,-17.0347,292.15,88,0,5.14,MR,1619568730
89,upington,-28.4478,21.2561,287.15,47,7,2.06,ZA,1619568883
90,lorengau,-2.0226,147.2712,302.57,67,76,2.28,PG,1619568883
91,laguna,38.421,-121.4238,299.82,15,1,5.66,US,1619568884
92,vanimo,-2.6741,141.3028,302.49,67,19,1.01,PG,1619568833
93,cherskiy,68.75,161.3,270.26,80,46,5.63,RU,1619568884
94,manggar,-2.8833,108.2667,301.27,75,100,2.44,ID,1619568885
95,samusu,,,,,,,,
96,clyde river,70.4692,-68.5914,267.15,79,40,4.12,CA,1619568855
97,clovis,36.8252,-119.7029,297.04,24,40,3.6,US,1619568886
98,saskylakh,71.9167,114.0833,270.67,89,98,4.61,RU,1619568764
99,koumra,8.9126,17.5539,300.71,53,63,2.07,TD,1619568886
100,northam,51.0333,-4.2167,281.48,86,100,1.79,GB,1619568907
101,eureka,40.8021,-124.1637,290.37,76,1,6.17,US,1619568907
102,kholodnyy,62.7167,147.95,266.93,80,95,0.81,RU,1619568907
103,ca mau,9.1769,105.15,300.32,79,100,1.57,VN,1619568908
104,iqaluit,63.7506,-68.5145,268.15,74,20,3.6,CA,1619568908
105,sigerfjord,,,,,,,,
106,nipawin,53.3668,-104.0009,274.15,47,40,4.63,CA,1619568881
107,longyearbyen,78.2186,15.6401,264.15,86,90,1.44,SJ,1619568909
108,albany,42.6001,-73.9662,288.71,41,97,0.61,US,1619568699
109,lumby,50.2498,-118.969,289.26,33,100,2.06,CA,1619568909
110,sosua,19.7667,-70.5167,299.15,73,20,4.26,DO,1619568910
111,kruisfontein,-34.0033,24.7314,285.93,90,71,0.45,ZA,1619568753
112,vaitupu,,,,,,,,
113,umzimvubu,,,,,,,,
114,ratnagiri,16.9833,73.3,299.44,79,1,1.18,IN,1619568911
115,kedrovyy,56.1667,91.8167,275.15,100,40,1,RU,1619568911
116,cape town,-33.9258,18.4232,288.15,88,0,1.03,ZA,1619568881
117,warri,5.5167,5.75,298.62,91,100,1.58,NG,1619568912
118,baijiantan,45.6333,85.1833,287.47,27,78,2.42,CN,1619568912
119,nikolskoye,59.7035,30.7861,274.82,80,40,1,RU,1619568912
120,yellowknife,62.456,-114.3525,266.15,42,75,7.2,CA,1619568699
121,xining,36.6167,101.7667,274.47,66,13,0.31,CN,1619568913
122,marystown,47.1666,-55.1483,276.51,93,95,3.13,CA,1619568913
123,preston,53.7667,-2.7167,280.37,83,100,4.02,GB,1619568914
124,pandan,14.0453,124.1694,300.35,64,100,3.29,PH,1619568914
125,atuona,-9.8,-139.0333,299.71,73,73,5.98,PF,1619568915
126,ilave,-16.0833,-69.6667,277.63,56,61,1.51,PE,1619568915
127,mugur-aksy,50.35,90.5,273.27,82,90,2.81,RU,1619568916
128,bengkulu,-3.8004,102.2655,297.67,86,53,1.54,ID,1619568916
129,bethel,41.3712,-73.414,289.15,29,1,2.06,US,1619568745
130,yagoua,10.3411,15.2329,303.26,19,38,1.47,CM,1619568917
131,port alfred,-33.5906,26.891,291.66,79,77,4.01,ZA,1619568917
132,yaan,7.3833,8.5667,299.85,76,86,5.06,NG,1619568918
133,ola,59.5833,151.2833,270.28,72,10,1.14,RU,1619568918
134,lagoa,39.05,-27.9833,288.62,79,100,5.89,PT,1619568918
135,sauda,59.6506,6.3542,275.93,76,15,0.89,NO,1619568919
136,angoche,-16.2325,39.9086,297.73,87,41,1.07,MZ,1619568919
137,puerto ayora,-0.7393,-90.3518,297.58,86,28,3.47,EC,1619568920
138,powell river,49.8496,-124.5361,286.15,71,90,3.09,CA,1619568920
139,victoria,22.2855,114.1577,298.15,88,98,2.9,HK,1619568787
140,barrow,71.2906,-156.7887,266.15,86,90,3.6,US,1619568921
141,oliver,49.1831,-119.5524,292.15,27,100,1.03,CA,1619568921
142,attawapiskat,,,,,,,,
143,chokurdakh,70.6333,147.9167,270.88,90,100,1.25,RU,1619568791
144,tabiauea,,,,,,,,
145,lavrentiya,65.5833,-171,272.88,92,100,1.97,RU,1619568922
146,arraial do cabo,-22.9661,-42.0278,294.15,94,75,2.06,BR,1619568747
147,zhob,31.3411,69.4481,294.38,29,34,1.32,PK,1619568922
148,madaba,31.5833,35.6667,289.15,62,0,2.06,JO,1619568923
149,hithadhoo,-0.6,73.0833,301.02,65,99,0.94,MV,1619568923
150,havre-saint-pierre,50.2334,-63.5986,278.15,93,90,2.06,CA,1619568852
151,amahai,-3.3333,128.9167,301.11,66,83,0.55,ID,1619568944
152,tabou,4.423,-7.3528,299.43,87,92,2.37,CI,1619568944
153,thompson,55.7435,-97.8558,269.15,46,75,7.72,CA,1619568747
154,lanzhou,36.0564,103.7922,273.15,100,31,1,CN,1619568945
155,gayeri,12.6497,0.4931,305.87,36,85,5.43,BF,1619568945
156,benjamin constant,-4.3831,-70.0311,298.15,94,0,1.03,BR,1619568946
157,sakakah,29.9697,40.2064,291.15,25,0,1.54,SA,1619568864
158,poya,-21.35,165.15,297.57,51,14,5.37,NC,1619568946
159,bambanglipuro,-7.95,110.2833,299.4,80,99,4.16,ID,1619568947
160,tiksi,71.6872,128.8694,261.95,82,64,3.99,RU,1619568947
161,butaritari,3.0707,172.7902,301.4,75,58,4.62,KI,1619568947
162,leningradskiy,69.3833,178.4167,268.91,81,76,6.12,RU,1619568948
163,fare,-16.7,-151.0167,300.53,71,36,3.84,PF,1619568948
164,bonavista,48.6499,-53.1147,276.15,93,100,3.09,CA,1619568906
165,batagay-alyta,67.8006,130.4114,262.66,81,74,1.25,RU,1619568949
166,tura,25.5198,90.2201,297.61,57,57,2.55,IN,1619568880
167,mount isa,-20.7333,139.5,299.15,29,0,4.63,AU,1619568949
168,pringsewu,-5.3582,104.9744,297.52,92,73,0.24,ID,1619568929
169,salinopolis,-0.6136,-47.3561,299.56,81,98,4.24,BR,1619568950
170,ciudad bolivar,8.1222,-63.5497,304.73,45,100,6.89,VE,1619568950
171,bambous virieux,-20.3428,57.7575,298.15,94,75,4.63,MU,1619568951
172,santa cruz de tenerife,28.4682,-16.2546,289.82,94,75,1.03,ES,1619568824
173,kamennogorsk,60.9545,29.1339,273.15,83,100,1.51,RU,1619568951
174,belushya guba,,,,,,,,
175,aplahoue,6.9333,1.6833,298.77,89,96,1.07,BJ,1619568952
176,catamarca,-28.4696,-65.7852,285.37,71,8,4.45,AR,1619568952
177,taltal,-25.4,-70.4833,289.91,82,29,0.67,CL,1619568952
178,damghan,36.1683,54.348,293.64,37,39,2.18,IR,1619568953
179,asau,46.4333,26.4,278.15,87,0,0.69,RO,1619568953
180,cotui,19.0527,-70.1494,299.15,83,75,2.57,DO,1619568954
181,dingle,10.9995,122.6711,299.26,77,99,3.45,PH,1619568954
182,nanortalik,60.1432,-45.2371,274.4,88,6,3.33,GL,1619568954
183,gualeguay,-33.1416,-59.3097,287.52,78,2,2.04,AR,1619568955
184,plouzane,48.3833,-4.6167,282.15,81,90,2.57,FR,1619568955
185,haimen,23.1935,116.6142,294.15,94,90,1.08,CN,1619568956
186,camacha,33.0833,-16.3333,290.15,88,40,2.06,PT,1619568765
187,avera,33.194,-82.5271,298.15,53,1,2.06,US,1619568733
188,norman wells,65.282,-126.8329,270.15,26,75,6.17,CA,1619568814
189,brae,60.3964,-1.353,276.15,87,47,3.6,GB,1619568956
190,naron,43.5167,-8.1528,286.48,82,90,1.54,ES,1619568957
191,palana,59.1167,159.9667,270.52,79,86,4.7,RU,1619568957
192,kaitangata,-46.2817,169.8464,284.26,60,85,2.68,NZ,1619568958
193,ponta do sol,32.6667,-17.1,287.59,82,100,0.89,PT,1619568958
194,nampula,-15.1165,39.2666,296.15,94,40,1.03,MZ,1619568958
195,axim,4.8699,-2.2405,300.72,83,73,4.2,GH,1619568901
196,mahebourg,-20.4081,57.7,297.15,94,75,4.63,MU,1619568959
197,cabo san lucas,22.8909,-109.9124,297.04,52,1,8.23,MX,1619568801
198,soyo,-6.1349,12.3689,298.81,84,98,0.13,AO,1619568858
199,tchibanga,-2.85,11.0333,294.9,97,100,0.38,GA,1619568960
200,praia,14.9215,-23.5087,295.15,73,20,7.72,CV,1619568744
201,narsaq,60.9167,-46.05,278.15,65,2,1.54,GL,1619568980
202,fuerte,17.5381,120.3644,301.01,69,58,1.64,PH,1619568981
203,karratha,-20.7377,116.8463,299.02,24,0,6.14,AU,1619568981
204,vetluga,57.8557,45.781,276.34,97,100,0.78,RU,1619568981
205,makakilo city,21.3469,-158.0858,301.15,57,20,6.17,US,1619568739
206,ainazi,57.8636,24.3578,274.88,83,29,5.71,LV,1619568982
207,samarai,-10.6167,150.6667,298.47,84,100,3.49,PG,1619568983
208,ouadda,8.0777,22.4007,297.37,56,55,1.41,CF,1619568983
209,bolgatanga,10.7856,-0.8514,299.56,65,96,2.44,GH,1619568983
210,myrtle grove,30.421,-87.3075,297.15,83,90,3.6,US,1619568984
211,antofagasta,-23.65,-70.4,290.15,77,0,1.54,CL,1619568964
212,aromashevo,56.8602,68.6375,280.56,54,98,2.03,RU,1619568985
213,wattegama,6.7989,81.4808,296.57,93,80,1.18,LK,1619568985
214,saleaula,,,,,,,,
215,zhanaozen,43.3,52.8,286.29,63,100,6.26,KZ,1619568986
216,rio grande,-32.035,-52.0986,283.15,93,45,4.2,BR,1619568986
217,chuy,-33.6971,-53.4616,285.37,79,0,2.89,UY,1619568728
218,paradwip,,,,,,,,
219,torbay,47.6666,-52.7314,279.26,100,90,2.06,CA,1619568987
220,ancud,-41.8697,-73.8203,285.37,94,40,3.6,CL,1619568987
221,kahului,20.8947,-156.47,300.15,74,40,3.6,US,1619568855
222,saint-joseph,-21.3667,55.6167,298.15,78,90,3.09,RE,1619568988
223,hualmay,-11.0964,-77.6139,292.78,84,84,4.29,PE,1619568988
224,sterling,39.0062,-77.4286,299.15,41,75,3.6,US,1619568965
225,verkhnyaya inta,65.9811,60.3094,270.6,96,100,2.38,RU,1619568989
226,ribeira grande,38.5167,-28.7,289.06,80,95,5.58,PT,1619568989
227,vardo,70.3705,31.1107,271.73,78,100,7.86,NO,1619568725
228,esperance,-33.8667,121.9,289.15,100,40,1.54,AU,1619568990
229,geraldton,-28.7667,114.6,290.15,67,12,1.54,AU,1619568991
230,kazalinsk,,,,,,,,
231,maldonado,-34.6667,-54.9167,288.15,77,20,1.54,UY,1619568991
232,qaqortoq,60.7167,-46.0333,278.15,65,1,1.54,GL,1619568992
233,mutata,7.2441,-76.4356,297.03,96,100,0.48,CO,1619568992
234,along,28.1667,94.7667,294.15,71,95,1.8,IN,1619568854
235,langevag,62.4375,6.1892,277.04,87,40,3.09,NO,1619568993
236,merauke,-8.4667,140.3333,300.77,78,49,1.28,ID,1619568993
237,nome,64.5011,-165.4064,279.15,52,1,1.54,US,1619568994
238,koumac,-20.5667,164.2833,298.06,56,1,7.8,NC,1619568994
239,kasempa,-13.4584,25.8338,291.4,89,100,1.63,ZM,1619568995
240,kinablangan,7.6947,126.5503,300.56,78,97,2.57,PH,1619568995
241,alice springs,-23.7,133.8833,290.15,36,0,3.09,AU,1619568996
242,burnie,-41.0667,145.9167,287.04,66,35,1.79,AU,1619568730
243,hamilton,39.1834,-84.5333,297.59,41,1,3.6,US,1619568996
244,pauini,-7.7136,-66.9764,295.77,97,61,1.09,BR,1619568997
245,encruzilhada do sul,-30.5439,-52.5219,282.51,67,0,2.03,BR,1619568997
246,port hardy,50.6996,-127.4199,282.15,100,90,3.6,CA,1619568998
247,carnarvon,-24.8667,113.6333,294.15,56,0,3.09,AU,1619568998
248,ahipara,-35.1667,173.1667,290.35,55,46,4.77,NZ,1619568798
249,yurginskoye,56.8189,67.3921,280.54,51,100,2.27,RU,1619568999
250,great yarmouth,52.6083,1.7305,280.93,87,85,3.6,GB,1619569020
251,primorsk,46.7348,36.3443,282.61,75,100,5.1,UA,1619569020
252,pevek,69.7008,170.3133,266.27,92,98,4.07,RU,1619568756
253,port blair,11.6667,92.75,300.3,71,72,1.98,IN,1619568772
254,zaplyusye,,,,,,,,
255,lolua,,,,,,,,
256,mildura,-34.2,142.15,293.71,48,47,0.59,AU,1619569021
257,nyurba,63.2842,118.3319,268.87,70,28,1.4,RU,1619569022
258,kununurra,-15.7667,128.7333,302.15,79,40,1.54,AU,1619569022
259,segezha,63.7415,34.3222,270.97,81,100,1.84,RU,1619569023
260,bereda,43.2686,-7.5406,283.71,98,100,3.58,ES,1619568790
261,hongjiang,27.11,109.9956,288.98,95,80,1.49,CN,1619569023
262,egvekinot,66.3167,-179.1667,270.34,92,99,0.07,RU,1619569024
263,requena,39.4883,-1.1004,288.15,94,75,1.03,ES,1619569024
264,le port,-20.9373,55.2919,298.15,73,0,4.63,RE,1619568869
265,shache,38.4167,77.2406,287.76,20,0,0.31,CN,1619568969
266,kijang,35.2442,129.2139,293.15,49,0,1.54,KR,1619569025
267,altamira,-3.2033,-52.2064,296.11,98,100,0.86,BR,1619569025
268,concarneau,47.875,-3.9225,282.15,87,0,5.14,FR,1619569026
269,marzuq,14.4,46.4667,295.82,65,98,1.02,YE,1619569026
270,guerrero negro,27.9769,-114.0611,290.98,61,1,7.16,MX,1619569027
271,cervo,43.6702,-7.4101,284.82,83,96,3.4,ES,1619569028
272,husavik,66.0449,-17.3389,277.15,75,0,1.54,IS,1619568827
273,san blas,21.5167,-105.2667,300.15,44,75,5.14,MX,1619569028
274,prestea,5.4327,-2.1428,298.35,94,82,0.72,GH,1619568977
275,provideniya,64.3833,-173.3,272.15,93,75,5,RU,1619569029
276,comodoro rivadavia,-45.8667,-67.5,293.15,52,0,4.12,AR,1619568792
277,yulara,-25.2406,130.9889,292.15,37,0,5.14,AU,1619569029
278,ximei,24.9639,118.3794,294.15,100,90,1,CN,1619569030
279,pacific grove,36.6177,-121.9166,291.15,48,1,5.14,US,1619569030
280,nhulunbuy,-12.2333,136.7667,300.15,89,75,5.66,AU,1619569031
281,kodinsk,58.6881,99.1844,272.95,72,6,1.44,RU,1619569031
282,chapais,49.7834,-74.8492,284.15,46,90,3.09,CA,1619568910
283,padang,-0.9492,100.3543,298.15,94,40,1.03,ID,1619568739
284,rawson,-43.3002,-65.1023,292.28,36,94,4.57,AR,1619569032
285,oil city,41.4339,-79.7064,297.15,33,1,4.63,US,1619569032
286,namibe,-15.1961,12.1522,297.15,68,18,3.41,AO,1619569033
287,san quintin,30.4833,-115.95,288.5,64,82,8.27,MX,1619568786
288,ixtapa,20.7,-105.2,300.15,74,75,6.69,MX,1619569033
289,grand gaube,-20.0064,57.6608,298.15,83,100,3.58,MU,1619568886
290,san patricio,28.017,-97.5169,298.71,88,90,7.72,US,1619568774
291,braganca,-1.0536,-46.7656,296.76,93,100,0.78,BR,1619569034
292,narkevychi,49.5172,26.6418,274.56,61,0,1.82,UA,1619569034
293,nianzishan,47.5167,122.8833,281.56,34,23,6.27,CN,1619569035
294,kotri,25.366,68.3122,299.01,69,0,4.3,PK,1619569035
295,lasa,46.6166,10.7002,282.04,87,75,4.12,IT,1619569036
296,tilichiki,60.4667,166.1,270.75,78,100,3.68,RU,1619569036
297,andenes,69.3143,16.1194,272.15,86,20,2.06,NO,1619568896
298,cidreira,-30.1811,-50.2056,288.61,74,1,3.8,BR,1619569037
299,nambucca heads,-30.65,153,295.37,60,88,7.2,AU,1619569037
300,mayo,38.8876,-76.5119,295.37,53,1,3.6,US,1619569058
301,puerto escondido,15.85,-97.0667,302.15,70,1,2.06,MX,1619569058
302,krasnoselkup,65.7,82.4667,273.27,98,100,3.76,RU,1619569059
303,la palma,33.8464,-118.0467,294.15,48,20,6.17,US,1619569059
304,fairbanks,64.8378,-147.7164,282.04,18,1,4.12,US,1619568926
305,maarianhamina,60.0973,19.9348,268.15,100,0,0.51,AX,1619569060
306,yongan,39.6957,113.6871,280.18,35,3,6.16,CN,1619569060
307,bima,-8.4667,118.7167,299.04,75,7,1.68,ID,1619569061
308,scarborough,54.2797,-0.4044,278.71,86,97,1.34,GB,1619568901
309,dunedin,-45.8742,170.5036,286.48,47,78,1.79,NZ,1619569061
310,linjiang,41.8069,126.9078,284.84,44,27,5.19,CN,1619569062
311,mercedes,-34.6515,-59.4307,288.71,66,1,0.89,AR,1619569062
312,ishigaki,24.3448,124.1572,297.15,73,75,4.63,JP,1619569062
313,sao felix do xingu,-6.6447,-51.995,296.36,95,99,0.82,BR,1619568849
314,kakonko,-3.2828,30.9642,290.95,96,97,1.27,TZ,1619569063
315,chumikan,54.7183,135.315,273.02,96,100,6.58,RU,1619568870
316,pafos,34.7667,32.4167,288.15,72,0,2.57,CY,1619569064
317,ugoofaaru,5.6667,73,301.68,73,91,2.88,MV,1619568915
318,sao filipe,14.8961,-24.4956,295.66,76,14,4.76,CV,1619569064
319,gizo,-8.103,156.8419,300.97,74,97,3.69,SB,1619569065
320,goderich,43.7501,-81.7165,290.15,63,100,1.03,CA,1619569065
321,nangomba,-10.9,38.5,294.33,98,56,0.43,TZ,1619569065
322,aktau,43.65,51.2,282.15,93,0,6,KZ,1619569066
323,zhigansk,66.7697,123.3711,263.73,85,18,2.33,RU,1619568819
324,nguru,12.8791,10.4526,303.84,12,51,3.89,NG,1619569067
325,atbasar,51.8,68.3333,286.47,77,100,6.85,KZ,1619568809
326,taoudenni,22.6783,-3.9836,306.39,15,44,4.4,ML,1619569067
327,hervey bay,-25.2986,152.8535,294.82,76,13,2.68,AU,1619569068
328,port-gentil,-0.7193,8.7815,300.15,89,40,1.54,GA,1619569068
329,una,20.8167,71.0333,299.85,60,0,3.45,IN,1619569069
330,tandil,-37.3217,-59.1332,286.48,84,1,2.49,AR,1619569069
331,saint anthony,45.0205,-93.218,281.15,87,90,3.6,US,1619569070
332,san cristobal,7.7669,-72.225,299.15,100,40,1.03,VE,1619569070
333,kushiro,42.975,144.3747,285.15,40,75,4.12,JP,1619569070
334,waipawa,-41.4122,175.5153,287.04,58,90,2.57,NZ,1619568905
335,tumannyy,,,,,,,,
336,nelson bay,-32.7167,152.15,293.71,77,40,1.54,AU,1619569071
337,dukat,62.55,155.55,269.55,68,1,1.69,RU,1619569071
338,clifton,40.8584,-74.1638,290.15,47,1,2.34,US,1619569008
339,fuling,29.7022,107.3919,292.74,84,100,0.65,CN,1619569072
340,mount gambier,-37.8333,140.7667,285.15,100,90,2.57,AU,1619569073
341,sao joao da barra,-21.6403,-41.0511,294.86,94,92,2.99,BR,1619569073
342,daru,-9.0763,143.2092,301.35,77,94,2.37,PG,1619569074
343,moose factory,51.2585,-80.6094,278.15,60,1,3.09,CA,1619569074
344,paros,37.0833,25.15,291.15,42,85,3.6,GR,1619569074
345,altagracia de orituco,9.8601,-66.3814,297.51,76,100,1.96,VE,1619569075
346,smithers,54.7804,-127.1743,281.15,66,90,2.57,CA,1619568903
347,glenwood springs,39.5505,-107.3248,282.04,93,99,2.57,US,1619569033
348,pervomayskoye,43.919,46.7102,281.87,77,89,2.96,RU,1619569076
349,sampit,-2.5333,112.95,298.15,92,100,0.71,ID,1619569076
350,aflu,,,,,,,,
351,bayangol,50.6977,103.4656,272.29,69,81,0.72,RU,1619569097
352,calvinia,-31.4707,19.776,285.41,72,81,2.18,ZA,1619569097
353,terra santa,-2.1042,-56.4869,297.06,96,99,0.11,BR,1619569098
354,severo-kurilsk,50.6789,156.125,274.31,96,100,7.7,RU,1619569098
355,norsup,-16.0667,167.3833,300.07,68,68,5.76,VU,1619569099
356,maryville,35.7565,-83.9705,298.15,47,75,5.66,US,1619568948
357,baft,29.234,56.6057,287.68,32,75,0.84,IR,1619569100
358,anage,-14.6122,-41.1356,296.09,56,7,1.5,BR,1619569100
359,marrakesh,31.6315,-8.0083,290.15,72,75,2.57,MA,1619569100
360,krugersdorp,-26.0858,27.7752,287.04,50,6,2.21,ZA,1619569101
361,fort-shevchenko,44.5086,50.263,285.61,76,98,4.64,KZ,1619569101
362,novikovo,51.1537,37.8879,276,69,100,2.49,RU,1619569101
363,port moresby,-9.4431,147.1797,300.15,83,40,2.57,PG,1619569102
364,cockburn harbour,,,,,,,,
365,eregli,37.5133,34.0467,287.55,38,61,1.11,TR,1619569102
366,tahta,26.7693,31.5021,296.15,31,0,5.14,EG,1619569103
367,port elizabeth,-33.918,25.5701,289.15,88,75,3.6,ZA,1619569103
368,prince rupert,54.3161,-130.3201,281.15,87,90,7.2,CA,1619568916
369,bolshaya murta,,,,,,,,
370,contamana,-7.3333,-75.0167,294.42,93,94,1.08,PE,1619569104
371,aybak,,,,,,,,
372,kastamonu,41.5,33.6667,281.64,64,61,0.68,TR,1619569105
373,arica,-18.475,-70.3042,292.15,72,0,1.03,CL,1619569105
374,yar-sale,66.8333,70.8333,272.31,93,100,0.31,RU,1619569106
375,katsuura,35.1333,140.3,293.15,68,75,7.72,JP,1619569106
376,sorland,67.667,12.6934,275.74,64,88,6.29,NO,1619569107
377,buraydah,26.326,43.975,300.15,39,40,2.57,SA,1619569107
378,hohhot,40.8106,111.6522,275.15,64,0,1,CN,1619568911
379,san policarpo,12.1791,125.5072,300.22,71,96,3.37,PH,1619569108
380,adrar,20.5022,-10.0711,302.38,17,66,5.46,MR,1619569108
381,corinto,37.9407,22.9573,287.04,63,34,0.6,GR,1619569035
382,bhakkar,31.6253,71.0657,301.36,28,51,1.29,PK,1619569109
383,kuminskiy,58.6667,66.5667,276.8,75,100,1.86,RU,1619569109
384,snellville,33.8573,-84.0199,297.15,53,1,2.57,US,1619569110
385,tingrela,,,,,,,,
386,upernavik,72.7868,-56.1549,271.38,90,62,5.55,GL,1619569110
387,windsor,42.3001,-83.0165,300.15,46,1,4.12,CA,1619568859
388,konstantinovka,49.6167,127.9833,285.74,39,100,3.22,RU,1619569111
389,abu samrah,35.3029,37.1841,287.25,76,0,3.38,SY,1619569111
390,coquimbo,-29.9533,-71.3436,287.15,88,0,2.57,CL,1619569112
391,viedma,-40.8135,-62.9967,292.23,56,21,4.31,AR,1619569042
392,nueva gorgona,8.55,-79.8667,302.15,58,20,5.14,PA,1619569112
393,minna,9.6139,6.5569,301.71,63,87,3.16,NG,1619569114
394,korla,41.7597,86.1469,287.52,35,21,1.78,CN,1619569115
395,tsihombe,,,,,,,,
396,wanxian,30.8039,108.3897,291.67,90,100,2.77,CN,1619569115
397,toowoomba,-27.55,151.9667,294.15,52,20,6.69,AU,1619569116
398,harrisonburg,38.4496,-78.8689,299.15,38,1,4.63,US,1619569116
399,hihifo,,,,,,,,
400,lambarene,-0.7001,10.2406,297.78,95,100,0.89,GA,1619569137
401,sao miguel do araguaia,-13.275,-50.1628,298.09,66,46,1.61,BR,1619569137
402,paka,4.6374,103.4368,298.15,94,20,1.81,MY,1619569138
403,mys shmidta,,,,,,,,
404,belem de sao francisco,-8.7539,-38.9658,299.53,60,56,6.82,BR,1619569138
405,srednebelaya,50.6594,128.0106,281.15,57,40,2.86,RU,1619569139
406,kayankulam,9.1833,76.5,299.43,84,36,1.17,IN,1619569139
407,kirakira,-10.4544,161.9205,302.46,65,85,1.41,SB,1619569140
408,alofi,-19.0595,-169.9187,301,79,95,10.74,NU,1619568893
409,bayevo,53.2833,80.7667,284.49,66,100,6.62,RU,1619569140
410,moundsville,39.9203,-80.7431,299.15,31,1,5.14,US,1619569141
411,faya,18.3851,42.4509,288.15,82,0,1.39,SA,1619569141
412,istanbul,41.0351,28.9833,285.15,71,0,2.57,TR,1619568414
413,inverness,57.4791,-4.224,279.26,87,90,4.12,GB,1619569142
414,nazas,25.2333,-104.1333,303.29,25,100,10.38,MX,1619569142
415,urdoma,61.7533,48.5442,275.92,95,100,1.42,RU,1619569143
416,yerbogachen,61.2767,108.0108,270.16,67,33,1,RU,1619569143
417,airai,-8.9266,125.4092,292.96,42,31,0.76,TL,1619569144
418,barraute,48.4335,-77.6328,284.15,28,90,1.54,CA,1619569045
419,okhotsk,59.3833,143.3,271.65,81,91,0.68,RU,1619569144
420,basse,52.5518,9.5069,279.15,49,4,2.06,DE,1619569145
421,alcala de henares,40.4821,-3.36,284.26,100,0,1.03,ES,1619569145
422,sayula,19.8667,-103.6167,301.15,51,40,5.14,MX,1619569146
423,kungurtug,50.5994,97.5228,272.99,78,100,0.74,RU,1619569146
424,zhongshu,24.5167,103.7667,287.03,95,100,1.58,CN,1619569146
425,constitucion,-35.3333,-72.4167,287.2,75,42,4.07,CL,1619569147
426,kroya,-7.6331,109.2461,300.07,77,75,3.2,ID,1619569147
427,roald,62.5833,6.1333,275.15,87,40,3.09,NO,1619569148
428,xuanwu,32.069,118.8138,289.15,100,21,1,CN,1619569148
429,alamosa,37.4695,-105.87,285.15,22,1,8.75,US,1619569149
430,paita,-5.0892,-81.1144,294.53,78,81,6.82,PE,1619569149
431,broome,42.2506,-75.833,292.15,37,1,2.06,US,1619569150
432,ostrovnoy,68.0531,39.5131,268.15,87,100,3.43,RU,1619569150
433,moba,33.2288,105.0179,279.57,53,22,2.19,CN,1619569151
434,nsukka,6.8561,7.3927,296.64,91,89,2.49,NG,1619569151
435,jiujiang,29.7333,115.9833,291.05,89,98,1.52,CN,1619569151
436,keti bandar,24.1447,67.4497,299.38,82,0,4.25,PK,1619569152
437,matam,15.6175,-13.3303,304.15,29,0,5.14,SN,1619569152
438,yicheng,31.3705,119.8703,288.71,99,14,0.45,CN,1619569153
439,jacksonville,30.3322,-81.6556,296.48,64,40,5.66,US,1619568518
440,sobolevo,54.4299,31.8996,274.51,98,99,3.3,RU,1619569153
441,khasan,42.4308,130.6434,284.78,61,85,3.45,RU,1619569154
442,ruatoria,,,,,,,,
443,richards bay,-28.783,32.0377,295.94,83,76,5.61,ZA,1619569154
444,rocha,-34.4833,-54.3333,284.14,87,0,1.91,UY,1619569154
445,marv dasht,,,,,,,,
446,harnosand,62.6323,17.9379,274.82,93,20,1.03,SE,1619569155
447,takoradi,4.8845,-1.7554,300.86,85,84,4.08,GH,1619569157
448,isangel,-19.55,169.2667,299.15,73,40,4.12,VU,1619569158
449,beringovskiy,63.05,179.3167,273.68,98,100,1.61,RU,1619568905
450,la paz,-16.5,-68.15,281.15,53,75,2.57,BO,1619569178
451,flinders,-34.5833,150.8552,293.71,76,91,0.45,AU,1619569179
452,lazaro cardenas,17.9583,-102.2,301.16,64,7,5.23,MX,1619569179
453,gallatin,45.6666,-111.2008,288.71,26,1,1.54,US,1619569180
454,serenje,-13.2325,30.2352,288.87,90,68,1.85,ZM,1619569180
455,faridkot,30.6667,74.75,300.34,16,13,0.79,IN,1619569181
456,nguiu,,,,,,,,
457,sindor,62.8629,51.8905,275.4,98,100,0.47,RU,1619569181
458,burkhala,,,,,,,,
459,orchard homes,46.8633,-114.0484,289.26,29,75,6.69,US,1619569097
460,mahibadhoo,3.7833,72.9667,301.41,74,85,3.05,MV,1619569182
461,seoul,37.5683,126.9778,288.15,82,75,2.57,KR,1619568732
462,suba,10.8438,121.0102,301.1,74,38,6.84,PH,1619569183
463,mnogovershinnyy,53.9353,139.9242,278.1,70,98,1.72,RU,1619569184
464,kargasok,59.0556,80.8572,276.08,92,82,1.24,RU,1619569184
465,deputatskiy,69.3,139.9,265.75,88,100,2.17,RU,1619569184
466,houlton,46.1262,-67.8403,283.15,53,75,4.12,US,1619569185
467,mahajanga,-15.7167,46.3167,297.15,100,20,2.06,MG,1619569185
468,komsomolsk,49.0097,33.6455,275.43,88,62,0.81,UA,1619569186
469,naze,28.3667,129.4833,295.15,64,75,4.63,JP,1619569186
470,buchanan,5.8808,-10.0467,296.15,94,75,2.57,LR,1619569186
471,shima,24.4478,117.8111,294.15,100,90,1,CN,1619569187
472,luanda,-8.8368,13.2343,297.15,88,75,4.63,AO,1619568899
473,turukhansk,65.8167,87.9833,274.86,89,100,7.61,RU,1619569187
474,mogadishu,2.0371,45.3438,300.97,77,45,4.44,SO,1619569188
475,lata,40.1629,-8.3327,288.15,86,64,1.39,PT,1619569188
476,lewisville,33.0462,-96.9942,297.59,78,90,9.26,US,1619568938
477,kenai,60.5544,-151.2583,289.15,26,1,5.66,US,1619569189
478,hasaki,35.7333,140.8333,294.15,56,75,6.17,JP,1619569189
479,kandi,11.1342,2.9386,302.79,43,50,3.16,BJ,1619569190
480,ayagoz,47.9714,80.4392,284.53,49,70,1.4,KZ,1619569190
481,andros town,24.7,-77.7667,298.15,69,40,6.69,BS,1619569191
482,genhe,50.7833,121.5167,275.18,64,100,1.65,CN,1619569191
483,jalapa,19.5333,-96.9167,296.97,65,41,2.11,MX,1619569103
484,shingu,33.7333,135.9833,291.15,77,75,6.17,JP,1619569192
485,surab,28.4914,66.2585,291.41,27,78,1.83,PK,1619569192
486,sioux lookout,50.1001,-91.917,286.15,38,20,1.03,CA,1619569193
487,margate,51.3813,1.3862,280.93,84,7,0.89,GB,1619569193
488,beloha,-25.1667,45.05,295.08,67,11,2.6,MG,1619569193
489,san-pedro,4.7485,-6.6363,299.4,90,89,3.04,CI,1619569194
490,kalianget,-7.05,113.9333,300.8,70,79,5.59,ID,1619569195
491,latung,5.5,120.8833,301.01,76,43,3.15,PH,1619569195
492,nizhneyansk,,,,,,,,
493,ilo,-17.6394,-71.3375,292.48,81,77,2.71,PE,1619569196
494,meulaboh,4.1363,96.1285,298.31,89,96,2.38,ID,1619569196
495,murchison,-41.8,172.3333,284.93,62,99,0.54,NZ,1619569197
496,zhangjiakou,40.81,114.8794,282.57,22,1,6.08,CN,1619569197
497,kommunar,59.6206,30.39,275.15,75,75,1,RU,1619569198
498,bubaque,11.2833,-15.8333,299.01,68,38,8.17,GW,1619569198
499,vila velha,-20.3297,-40.2925,298.15,83,90,2.57,BR,1619569198
500,comarapa,-17.9,-64.4833,283.69,94,55,1.24,BO,1619569219
501,medicine hat,50.0501,-110.6683,292.59,15,40,2.06,CA,1619569219
502,saint-leu,-21.15,55.2833,298.15,78,90,3.09,RE,1619569220
503,goure,13.9835,10.2704,301.62,11,11,4.83,NE,1619569220
504,esna,25.2934,32.554,295.15,24,0,1.03,EG,1619569221
505,port augusta,-32.5,137.7667,291.15,77,54,2.57,AU,1619569221
506,ondangwa,-17.9167,15.95,293.15,49,19,1.54,NA,1619569222
507,patitirion,39.15,23.8667,285.37,89,86,2.24,GR,1619569222
508,tommot,58.9564,126.2925,268.06,89,100,2.92,RU,1619569223
509,petropavlovsk-kamchatskiy,53.0452,158.6483,279.15,87,40,5,RU,1619569223
510,goedereede,51.8175,3.9806,282.04,54,8,5.88,NL,1619569224
511,fonte boa,-2.4959,-66.2662,296.36,98,88,0.58,BR,1619569225
512,manga,11.6636,-1.0731,302.45,52,95,5.72,BF,1619569225
513,kasiri,8.9412,-13.1148,298.93,71,81,1.46,SL,1619569226
514,bac lieu,9.285,105.7244,301.57,71,100,3.14,VN,1619569226
515,ayios kirikos,,,,,,,,
516,avsyunino,55.5652,39.1232,276.15,87,0,4,RU,1619569227
517,bulawayo,-20.15,28.5833,292.09,36,85,2.99,ZW,1619569227
518,springbok,-29.6643,17.8865,287.14,44,100,1.5,ZA,1619569228
519,vestmannaeyjar,63.4427,-20.2734,279.84,79,32,9,IS,1619569228
520,port hueneme,34.1478,-119.1951,292.15,63,20,7.72,US,1619569229
521,adelaide,-34.9333,138.6,291.48,67,0,1.54,AU,1619569009
522,port lincoln,-34.7333,135.8667,291.97,53,91,1.32,AU,1619569229
523,umm durman,,,,,,,,
524,iracoubo,5.4802,-53.2011,297.22,89,100,2.59,GF,1619569230
525,ilulissat,69.2167,-51.1,275.15,69,90,1.64,GL,1619569231
526,celestun,20.8667,-90.4,303.68,58,4,8.06,MX,1619569231
527,leoben,47.3461,15.1257,279.82,93,90,0.92,AT,1619569231
528,zavodouspenskoye,56.8626,65.0155,281.15,39,20,4,RU,1619569232
529,araouane,18.9048,-3.5265,306.01,10,11,4.02,ML,1619569232
530,paamiut,61.994,-49.6678,275.24,85,2,5.06,GL,1619569233
531,majene,-3.5403,118.9707,299.91,82,93,2.4,ID,1619569233
532,tete,-16.1564,33.5867,296.15,78,0,1.5,MZ,1619569234
533,urfa,,,,,,,,
534,noumea,-22.2763,166.4572,298.15,53,20,7.72,NC,1619569234
535,hun,29.1268,15.9477,300.68,12,7,4.55,LY,1619569235
536,prachuap khiri khan,12.2167,99.75,300.93,94,20,1.54,TH,1619569205
537,lai,9.3952,16.2989,303.4,40,75,1.82,TD,1619569235
538,mo i rana,66.3128,14.1428,273.71,80,99,2.24,NO,1619569236
539,mecca,21.4267,39.8261,300.59,42,33,1.61,SA,1619569057
540,cam ranh,11.9214,109.1591,301.15,74,20,2.57,VN,1619569236
541,hit,33.6416,42.8251,296.33,29,0,2.44,IQ,1619569028
542,louisbourg,,,,,,,,
543,wahiawa,21.5028,-158.0236,300.37,54,1,3.6,US,1619569237
544,chalchihuites,23.4833,-103.8833,295.63,30,83,11.08,MX,1619569238
545,gelibolu,40.4103,26.6708,283.15,87,0,2.06,TR,1619569238
546,souillac,-20.5167,57.5167,297.15,94,75,4.63,MU,1619569238
547,cedral,23.8,-100.7333,303.65,15,99,8.55,MX,1619569239
548,coxim,-18.5067,-54.76,296.63,50,2,2.85,BR,1619569240
549,dolinsk,47.35,142.8,279.15,93,75,4,RU,1619569240
550,bastia,42.6667,9.3333,287.04,94,75,2.06,FR,1619569260
551,matrei,,,,,,,,
552,haines junction,60.7522,-137.5108,276.15,25,26,3.6,CA,1619569261
553,edmundston,47.3737,-68.3251,281.15,66,99,2.06,CA,1619569262
554,ushtobe,45.2514,77.9838,287.44,32,3,1.92,KZ,1619569262
555,praia da vitoria,38.7333,-27.0667,288.15,88,75,4.62,PT,1619569262
556,cabatuan,10.8794,122.486,299.58,75,86,4.62,PH,1619569263
557,kalomo,,,,,,,,
558,lamu,-2.2717,40.902,299.87,81,45,4.26,KE,1619569263
559,saint-denis,48.9167,2.3333,284.82,57,0,1.54,FR,1619569264
560,marsabit,2.3284,37.9899,293.77,66,92,5.18,KE,1619569264
561,vanavara,60.34,102.2797,270.91,69,17,1.28,RU,1619569265
562,jerez,14.1,-89.75,300.15,54,90,3.09,GT,1619569265
563,malanje,-9.5402,16.341,291.11,90,58,0.54,AO,1619569266
564,batak,41.95,24.2167,286.48,71,32,3.6,BG,1619569266
565,hambantota,6.1241,81.1185,299.53,85,86,4.32,LK,1619569267
566,zyryanka,65.75,150.85,271.32,81,18,5.97,RU,1619569267
567,kabare,-2.4683,28.8242,289.15,96,100,0.4,CD,1619569268
568,kavieng,-2.5744,150.7967,302,71,54,3.05,PG,1619569268
569,vao,-22.6667,167.4833,296.35,52,61,6.9,NC,1619569269
570,partizanskoye,55.5006,94.39,277.15,93,100,2.12,RU,1619569269
571,amderma,,,,,,,,
572,grindavik,63.8424,-22.4338,279.15,100,90,2.06,IS,1619569270
573,cochrane,51.1834,-114.4687,283.71,34,75,5.14,CA,1619569159
574,semypolky,50.7167,30.9333,275.93,80,0,2,UA,1619569270
575,kauhajoki,62.4333,22.1833,269.82,93,0,0.51,FI,1619569271
576,komsomolskiy,40.4272,71.7189,290.15,39,0,4.12,UZ,1619569271
577,nyrob,60.733,56.7202,275.98,93,99,1.62,RU,1619569272
578,santa maria,-29.6842,-53.8069,284.15,100,0,0.51,BR,1619569272
579,mahina,-17.5065,-149.489,303.15,66,75,4.63,PF,1619569272
580,guna,24.65,77.3167,299.62,18,0,2.45,IN,1619569273
581,sydney,-33.8679,151.2073,294.82,64,75,2.06,AU,1619568813
582,angra,,,,,,,,
583,akdepe,42.0551,59.3788,291.15,42,0,3.09,TM,1619569274
584,halalo,,,,,,,,
585,zabid,14.1951,43.3152,303.68,53,94,2.3,YE,1619569274
586,pangai,-19.8,-174.35,297.15,100,90,4.12,TO,1619569274
587,opobo,,,,,,,,
588,hobyo,5.3505,48.5268,301.79,73,20,4.84,SO,1619569275
589,la asuncion,11.0333,-63.8628,300.15,74,99,6.17,VE,1619569275
590,toktogul,41.8708,72.9402,287.1,47,1,1.98,KG,1619569030
591,oksfjord,70.2396,22.3479,272.04,93,75,1.54,NO,1619569276
592,yelan,50.949,43.7378,277.05,78,100,2.64,RU,1619569276
593,atar,20.5169,-13.0499,301,23,84,2.09,MR,1619569277
594,yangcun,39.3639,117.0603,291.15,20,0,4,CN,1619569277
595,popondetta,-8.7537,148.2534,302.7,65,97,1.36,PG,1619569277
596,otane,-39.8833,176.6333,287.59,60,63,0.89,NZ,1619569278
597,vostok,46.4856,135.8833,279,70,100,2.07,RU,1619569278
598,cochirleanca,45.2167,27.0333,278.9,87,100,6.1,RO,1619569279
599,zhaotong,27.3167,103.7167,283.59,88,100,2.58,CN,1619569279
600,sitka,57.0531,-135.33,282.15,66,90,6.17,US,1619569299
601,guiglo,6.5456,-7.4966,296.4,98,100,1,CI,1619569300
602,ratholo,-22.7245,27.572,291.04,22,0,0.49,BW,1619569300
603,disna,55.568,28.1971,275.74,94,99,3.15,BY,1619569300
604,bagdarin,54.4333,113.6,267.6,51,100,3.94,RU,1619569301
605,mushie,-3.0167,16.9,296.26,92,87,1.3,CD,1619569301
606,vila do maio,15.1333,-23.2167,295.15,73,75,6.17,CV,1619569302
607,tuatapere,-46.1333,167.6833,283.17,77,96,2.13,NZ,1619569302
608,ransang,8.9603,117.5828,300.78,75,80,1.39,PH,1619569302
609,kolochava,48.4285,23.6959,272.15,88,86,2.04,UA,1619569303
610,razole,16.4833,81.8333,299.37,82,3,1.64,IN,1619569303
611,labuhan,-6.8844,112.2051,299.01,81,35,2.79,ID,1619569304
612,lensk,60.7253,114.9278,268.7,79,50,0.89,RU,1619569203
613,dhamtari,20.7072,81.5497,297.68,19,1,1.61,IN,1619569304
614,olafsvik,64.8945,-23.7142,279.95,74,100,1.7,IS,1619569304
615,bathsheba,13.2167,-59.5167,299.15,65,40,5.14,BB,1619569305
616,magadan,59.5667,150.8,270.55,74,12,1.08,RU,1619569305
617,wulanhaote,,,,,,,,
618,barra dos coqueiros,-10.9089,-37.0386,301.15,74,40,4.63,BR,1619569306
619,port macquarie,-31.4333,152.9167,295.37,65,30,0.45,AU,1619569306
620,pangkalanbuun,-2.6833,111.6167,297.28,95,100,0.86,ID,1619569306
621,muroto,33.2833,134.15,289.15,94,75,1.54,JP,1619569307
622,chimbote,-9.0853,-78.5783,291.86,90,76,3.11,PE,1619569307
623,dahegam,23.1667,72.8167,303.15,30,40,1.54,IN,1619569308
624,issenye,-2,34.3333,289.22,95,34,1.48,TZ,1619569308
625,igarka,67.4667,86.5833,273.55,86,100,6.4,RU,1619569308
626,filadelfia,39.9523,-75.1638,295.37,46,75,2.06,US,1619569057
